"","Incident.Date","State","City.Or.County","Address","X..Killed","X..Injured","Operations","location","long","lat"
"1","November 26, 2016","Illinois","Chicago","8800 block of South Exchange Avenue",1,5,"N/A","Chicago ,   Illinois",-87.6297982,41.8781136
"2","November 25, 2016","Louisiana","New Orleans","Magnolia and Felicity Street",0,4,"N/A","New Orleans ,   Louisiana",-90.0715323,29.9510658
"3","November 24, 2016","Kentucky","Louisville","4501 W Broadway",2,5,"N/A","Louisville ,   Kentucky",-85.7584557,38.2526647
"4","November 24, 2016","New York","Albany","77 Central Avenue",1,3,"N/A","Albany ,   New York",-73.7562317,42.6525793
"5","November 23, 2016","Mississippi","Olive Branch","928 Cross Road",0,4,"N/A","Olive Branch ,   Mississippi",-89.8295315,34.9617604
"6","November 22, 2016","Florida","Clewiston","1068 Harlem Academy Avenue",1,4,"N/A","Clewiston ,   Florida",-80.9336753,26.7542312
"7","November 18, 2016","Illinois","Chicago","5000 block of West Wabansia",0,4,"N/A","Chicago ,   Illinois",-87.6297982,41.8781136
"8","November 17, 2016","Tennessee","Dyersburg","160 Longfellow",1,7,"N/A","Dyersburg ,   Tennessee",-89.3856281,36.0345159
"9","November 13, 2016","California","San Diego","3800 block of Marlborough Avenue",3,2,"N/A","San Diego ,   California",-117.1610838,32.715738
"10","November 13, 2016","Florida","Jacksonville","5105 Cleveland Rd",3,2,"N/A","Jacksonville ,   Florida",-81.655651,30.3321838
"11","November 13, 2016","Florida","Orlando","Conley Street and South Ivey Lane",0,4,"N/A","Orlando ,   Florida",-81.3792365,28.5383355
"12","November 13, 2016","Texas","San Antonio","8000 Midcrown",0,4,"N/A","San Antonio ,   Texas",-98.4936282,29.4241219
"13","November 12, 2016","Connecticut","Bridgeport","2500 Park Avenue",0,5,"N/A","Bridgeport ,   Connecticut",-73.1951767,41.1865478
"14","November 12, 2016","California","Sacramento","8600 block of Ardith Drive",1,5,"N/A","Sacramento ,   California",-121.4943996,38.5815719
"15","November 12, 2016","Missouri","Kansas City","21st Street and Cleveland Avenue",1,3,"N/A","Kansas City ,   Missouri",-94.5785667,39.0997265
"16","November 11, 2016","Texas","Houston","7705 Channelside Street",0,4,"N/A","Houston ,   Texas",-95.3698028,29.7604267
"17","November 10, 2016","Texas","Houston","N/A",1,3,"N/A","Houston ,   Texas",-95.3698028,29.7604267
"18","November 9, 2016","Illinois","Chicago","3400 block of West Monroe",1,3,"N/A","Chicago ,   Illinois",-87.6297982,41.8781136
"19","November 9, 2016","Tennessee","Memphis","1800 block of East Brooks Road",0,4,"N/A","Memphis ,   Tennessee",-90.0489801,35.1495343
"20","November 9, 2016","Washington","Seattle","1524 3rd Ave",0,5,"N/A","Seattle ,   Washington",-122.3320708,47.6062095
"21","November 5, 2016","Florida","Fort Lauderdale (Lauderhill)","3135 West Broward Boulevard",1,3,"N/A","Fort Lauderdale (Lauderhill) ,   Florida",-80.2045537,26.1462363
"22","November 5, 2016","South Carolina","Myrtle Beach","803 Main Street",0,5,"N/A","Myrtle Beach ,   South Carolina",-78.8866943,33.6890603
"23","November 5, 2016","California","Oakland","420 14th Street",0,8,"N/A","Oakland ,   California",-122.2711137,37.8043637
"24","November 5, 2016","Illinois","Chicago","4800 block of North Winthrop",0,5,"N/A","Chicago ,   Illinois",-87.6297982,41.8781136
"25","November 5, 2016","Texas","San Antonio","10726 Perrin Beitel Road",0,4,"N/A","San Antonio ,   Texas",-98.4936282,29.4241219
"26","November 4, 2016","Pennsylvania","Philadelphia","5451 Springfield Avenue",0,4,"N/A","Philadelphia ,   Pennsylvania",-75.1652215,39.9525839
"27","November 3, 2016","Illinois","Chicago","8000 block of South Shore Drive",2,2,"N/A","Chicago ,   Illinois",-87.6297982,41.8781136
"28","November 2, 2016","Arkansas","Little Rock","2111 Bragg Street",1,4,"N/A","Little Rock ,   Arkansas",-92.2895948,34.7464809
"29","November 1, 2016","Tennessee","Memphis","5200 block of Zodiac Rd",1,5,"N/A","Memphis ,   Tennessee",-90.0489801,35.1495343
"30","October 31, 2016","Louisiana","Shreveport","700 Block of  Central Street",0,4,"N/A","Shreveport ,   Louisiana",-93.7501789,32.5251516
"31","October 30, 2016","Ohio","Toledo","742 Junction Avenue",0,4,"N/A","Toledo ,   Ohio",-83.555212,41.6639383
"32","October 30, 2016","New York","New York (Manhattan)","135 Ridge Street",0,4,"N/A","New York (Manhattan) ,   New York",-73.9712488,40.7830603
"33","October 30, 2016","Maryland","Capitol Heights","6860 Walker Mill Road",2,4,"N/A","Capitol Heights ,   Maryland",-76.9158068,38.8851122
"34","October 30, 2016","Texas","San Antonio","2900 block of Aspen Meadow",0,5,"N/A","San Antonio ,   Texas",-98.4936282,29.4241219
"35","October 30, 2016","New York","Newburgh","119 Broadway",2,5,"N/A","Newburgh ,   New York",-74.0104178,41.5034271
"36","October 29, 2016","Ohio","Dayton","2010 Cornell Ridge Drive",1,3,"N/A","Dayton ,   Ohio",-84.1916069,39.7589478
"37","October 29, 2016","California","Los Angeles","1600 block of Century Boulevard",0,5,"N/A","Los Angeles ,   California",-118.2436849,34.0522342
"38","October 29, 2016","California","Riverside","3500 block of Madison Street",0,4,"N/A","Riverside ,   California",-117.3961564,33.9533487
"39","October 28, 2016","Florida","Miami Gardens","Northwest 173rd Terrace and 27th Avenue",0,4,"N/A","Miami Gardens ,   Florida",-80.2456045,25.9420377
"40","October 28, 2016","Mississippi","Jackson","200 block of Lorenz Boulevard",0,6,"N/A","Jackson ,   Mississippi",-90.1848103,32.2987573
"41","October 27, 2016","Georgia","Mcdonough (Mc Donough)","600 block of Moccasin Gap Road",4,0,"N/A","Mcdonough (Mc Donough) ,   Georgia",-84.1468616,33.4473361
"42","October 25, 2016","Virginia","Roanoke","830 Campbell Avenue Southeast",2,3,"N/A","Roanoke ,   Virginia",-79.9414266,37.2709704
"43","October 25, 2016","Ohio","Dayton","3300 block of Riverside Drive",1,3,"N/A","Dayton ,   Ohio",-84.1916069,39.7589478
"44","October 23, 2016","Oklahoma","Wellston","Highway 66 and S. 3310 Road",1,5,"N/A","Wellston ,   Oklahoma",-97.063363,35.6942278
"45","October 22, 2016","California","Oakland","77th and Bancroft Avenues",0,7,"N/A","Oakland ,   California",-122.2711137,37.8043637
"46","October 18, 2016","California","San Francisco","325 La Grande Avenue",0,4,"N/A","San Francisco ,   California",-122.4194155,37.7749295
"47","October 17, 2016","Illinois","Chicago (Englewood)","6700 block of South Winchester",1,4,"N/A","Chicago (Englewood) ,   Illinois",-87.6416419,41.775305
"48","October 15, 2016","Alabama","Mobile","1800 block of St Stephens Road",0,5,"N/A","Mobile ,   Alabama",-88.0398912,30.6953657
"49","October 15, 2016","California","Los Angeles","2918 Rimpau Boulevard",4,11,"N/A","Los Angeles ,   California",-118.2436849,34.0522342
"50","October 15, 2016","Illinois","Rockford","7801 East State Street",1,5,"N/A","Rockford ,   Illinois",-89.0939952,42.2711311
"51","October 14, 2016","Illinois","Chicago","3300 block of Maypole",1,6,"N/A","Chicago ,   Illinois",-87.6297982,41.8781136
"52","October 13, 2016","Illinois","Chicago","2700 block of West Lexington",0,4,"N/A","Chicago ,   Illinois",-87.6297982,41.8781136
"53","October 9, 2016","Michigan","Grand Rapids","1850 28th Street SE",1,8,"N/A","Grand Rapids ,   Michigan",-85.6680863,42.9633599
"54","October 9, 2016","California","Sacramento","1696 Arden Way",1,3,"N/A","Sacramento ,   California",-121.4943996,38.5815719
"55","October 8, 2016","New York","Brooklyn","7301 3rd Avenue",0,4,"N/A","Brooklyn ,   New York",-73.9441579,40.6781784
"56","October 4, 2016","Louisiana","New Orleans","3727 Ulloa Street",3,2,"N/A","New Orleans ,   Louisiana",-90.0715323,29.9510658
"57","October 3, 2016","Minnesota","Minneapolis","Fourth Street and Hennepin Avenue",0,4,"N/A","Minneapolis ,   Minnesota",-93.2650108,44.977753
"58","October 2, 2016","Texas","San Antonio","2600 South Flores Street",1,4,"N/A","San Antonio ,   Texas",-98.4936282,29.4241219
"59","October 1, 2016","Illinois","Pembroke Township","17250E Road",4,0,"N/A","Pembroke Township ,   Illinois",-87.5791287,41.0543785
"60","October 1, 2016","California","Fresno","3200 block of East Clay Avenue",0,4,"N/A","Fresno ,   California",-119.7725868,36.7468422
"61","September 29, 2016","California","San Francisco","Jones and Ellis Streets",1,3,"N/A","San Francisco ,   California",-122.4194155,37.7749295
"62","September 26, 2016","Texas","Humble","21219 Grand Linden Court",0,4,"N/A","Humble ,   Texas",-95.2621553,29.9988312
"63","September 26, 2016","Texas","Houston","5450 Weslayan St",1,6,"N/A","Houston ,   Texas",-95.3698028,29.7604267
"64","September 26, 2016","North Carolina","Winston Salem (Winston-salem)","100 block of 5 Royales Drive",0,4,"N/A","Winston Salem (Winston-salem) ,   North Carolina",-80.244216,36.0998596
"65","September 25, 2016","Illinois","Champaign","300 block of E. Green Street",1,3,"N/A","Champaign ,   Illinois",-88.2433829,40.1164204
"66","September 24, 2016","Maryland","Baltimore","Greenmount Avenue and Preston Street",0,8,"N/A","Baltimore ,   Maryland",-76.6121893,39.2903848
"67","September 23, 2016","Washington","Burlington","201 Cascade Mall Dr",5,0,"N/A","Burlington ,   Washington",-122.3254374,48.4756621
"68","September 18, 2016","Pennsylvania","Philadelphia","3001 Castor Avenue",0,4,"N/A","Philadelphia ,   Pennsylvania",-75.1652215,39.9525839
"69","September 18, 2016","Virginia","Lynchburg","421 Rivermont Ave",1,3,"N/A","Lynchburg ,   Virginia",-79.1422464,37.4137536
"70","September 18, 2016","Pennsylvania","Pittsburgh","1700 block of Brighton Place",0,4,"N/A","Pittsburgh ,   Pennsylvania",-79.9958864,40.4406248
"71","September 17, 2016","Florida","Miami","20582 Southwest 119th Avenue",0,6,"N/A","Miami ,   Florida",-80.1917902,25.7616798
"72","September 17, 2016","Indiana","Indianapolis","2016 West 76th Street",2,2,"N/A","Indianapolis ,   Indiana",-86.158068,39.768403
"73","September 17, 2016","Florida","Orlando","3918 Columbia Street",1,6,"N/A","Orlando ,   Florida",-81.3792365,28.5383355
"74","September 17, 2016","District of Columbia","Washington","2600 block of Birney Place SE",2,7,"N/A","Washington ,   District of Columbia",-77.0368707,38.9071923
"75","September 16, 2016","California","Los Angeles (Hollywood)","555 N Heliotrope Drive",2,2,"N/A","Los Angeles (Hollywood) ,   California",-118.3286614,34.0928092
"76","September 16, 2016","Pennsylvania","Philadelphia","5100 block of Sansom Street",2,5,"N/A","Philadelphia ,   Pennsylvania",-75.1652215,39.9525839
"77","September 14, 2016","Texas","Houston","16000 block of Saybrook",1,3,"N/A","Houston ,   Texas",-95.3698028,29.7604267
"78","September 13, 2016","Indiana","Fort Wayne","1723 E Wayne St",3,2,"N/A","Fort Wayne ,   Indiana",-85.1393513,41.079273
"79","September 11, 2016","Louisiana","New Orleans","2349 S Claiborne Ave",1,5,"N/A","New Orleans ,   Louisiana",-90.0715323,29.9510658
"80","September 11, 2016","Missouri","Kansas City","500 block of Westport Road",0,6,"N/A","Kansas City ,   Missouri",-94.5785667,39.0997265
"81","September 11, 2016","Indiana","Fort Wayne","3006 Holton Avenue",3,1,"N/A","Fort Wayne ,   Indiana",-85.1393513,41.079273
"82","September 11, 2016","Michigan","Saginaw","2207 Pierce Road",0,5,"N/A","Saginaw ,   Michigan",-83.9508068,43.4194699
"83","September 11, 2016","North Carolina","New Bern","1100 block of Highway 70",0,5,"N/A","New Bern ,   North Carolina",-77.0441143,35.108493
"84","September 11, 2016","New Jersey","Jersey City","87 Van Wagenen Ave",1,3,"N/A","Jersey City ,   New Jersey",-74.0776417,40.7281575
"85","September 10, 2016","Florida","Miami","3451 Northwest 36 Street",1,3,"N/A","Miami ,   Florida",-80.1917902,25.7616798
"86","September 8, 2016","Arkansas","Hot Springs National Park (Hot Springs)","300 block of Lacey Street",1,4,"N/A","Hot Springs National Park (Hot Springs) ,   Arkansas",-93.0423545,34.5216915
"87","September 8, 2016","Texas","Del Valle","8330 Linden Rd",4,0,"N/A","Del Valle ,   Texas",-97.6472349,30.2091069
"88","September 5, 2016","Pennsylvania","Reading","600 block of Moss Street",0,4,"N/A","Reading ,   Pennsylvania",-75.9268747,40.3356483
"89","September 5, 2016","Illinois","Chicago","2700 block of West Lexington Avenue",2,3,"N/A","Chicago ,   Illinois",-87.6297982,41.8781136
"90","September 4, 2016","Virginia","Roanoke","1020 Orange Ave NE",1,10,"N/A","Roanoke ,   Virginia",-79.9414266,37.2709704
"91","September 3, 2016","Illinois","Chicago","100 block of North Seeley Avenue",0,4,"N/A","Chicago ,   Illinois",-87.6297982,41.8781136
"92","September 3, 2016","North Carolina","Wilmington","600 block of North 30th Street",1,3,"N/A","Wilmington ,   North Carolina",-77.9447102,34.2257255
"93","August 30, 2016","Georgia","Atlanta","400 Merritts Avenue NE",0,4,"N/A","Atlanta ,   Georgia",-84.3879824,33.7489954
"94","August 30, 2016","Illinois","Chicago (Englewood)","6800 block of South Ashland",0,4,"N/A","Chicago (Englewood) ,   Illinois",-87.6416419,41.775305
"95","August 29, 2016","New Jersey","Egg Harbor City","907 White Horse Pike",1,5,"N/A","Egg Harbor City ,   New Jersey",-74.6479364,39.5287282
"96","August 29, 2016","California","Temecula","41450 Cruz Way",5,0,"N/A","Temecula ,   California",-117.1483648,33.4936391
"97","August 28, 2016","Texas","Lubbock","2200 block of 17th St",0,6,"N/A","Lubbock ,   Texas",-101.8551665,33.5778631
"98","August 28, 2016","Missouri","Saint Louis","South Grand and Montana",2,2,"N/A","Saint Louis ,   Missouri",-90.1994042,38.6270025
"99","August 28, 2016","New York","Bronx","514 E 156th St",0,4,"N/A","Bronx ,   New York",-73.8648268,40.8447819
"100","August 28, 2016","Alabama","Dadeville","512 E Columbus St",0,5,"N/A","Dadeville ,   Alabama",-85.7635692,32.831238
"101","August 27, 2016","Florida","Miami","1900 block of NW 83rd Terr",2,4,"N/A","Miami ,   Florida",-80.1917902,25.7616798
"102","August 27, 2016","Alabama","Bessemer (Brighton)","3810 7th Ave",1,6,"N/A","Bessemer (Brighton) ,   Alabama",-86.9549563,33.4442039
"103","August 25, 2016","New Jersey","Bridgeton","Marion Street",0,5,"N/A","Bridgeton ,   New Jersey",-75.2340768,39.427337
"104","August 21, 2016","Connecticut","Bridgeport","19 Plymouth St",0,13,"N/A","Bridgeport ,   Connecticut",-73.1951767,41.1865478
"105","August 21, 2016","Massachusetts","Boston","Westview and Stratton Street",0,4,"N/A","Boston ,   Massachusetts",-71.0588801,42.3600825
"106","August 20, 2016","Washington","Tacoma","900 block of Pacific Avenue",0,5,"N/A","Tacoma ,   Washington",-122.4442906,47.2528768
"107","August 20, 2016","Connecticut","Hamden","903 Dixwell Avenue",0,4,"N/A","Hamden ,   Connecticut",-72.9026064,41.3838782
"108","August 20, 2016","Alabama","Citronelle","Jim Platt Road",5,0,"N/A","Citronelle ,   Alabama",-88.2280622,31.0907338
"109","August 18, 2016","Connecticut","Waterbury","402 E Main Street",0,4,"N/A","Waterbury ,   Connecticut",-73.0514965,41.5581525
"110","August 17, 2016","California","Oakland","Mandela Parkway",0,4,"N/A","Oakland ,   California",-122.2711137,37.8043637
"111","August 14, 2016","Minnesota","Minneapolis","1717 Plymouth Avenue North",0,5,"N/A","Minneapolis ,   Minnesota",-93.2650108,44.977753
"112","August 14, 2016","Virginia","Norfolk","1600 block of Selden Avenue",0,4,"N/A","Norfolk ,   Virginia",-76.2858726,36.8507689
"113","August 13, 2016","Wisconsin","Milwaukee","4001 West Fond Du Lac Avenue",2,2,"N/A","Milwaukee ,   Wisconsin",-87.9064736,43.0389025
"114","August 13, 2016","California","Los Angeles","6300 block of 11th Avenue",0,4,"N/A","Los Angeles ,   California",-118.2436849,34.0522342
"115","August 13, 2016","New York","Corona (Queens)","105-06 Jamaica Avenue",0,4,"N/A","Corona (Queens) ,   New York",-73.8642613,40.7449859
"116","August 13, 2016","Missouri","Joplin","1800 Connecticut Ave",0,4,"N/A","Joplin ,   Missouri",-94.513281,37.0842271
"117","August 12, 2016","Florida","Jacksonville","100 block of West 38th Street",1,3,"N/A","Jacksonville ,   Florida",-81.655651,30.3321838
"118","August 12, 2016","Texas","Dallas","10921 Estate Lane",1,3,"N/A","Dallas ,   Texas",-96.7969879,32.7766642
"119","August 11, 2016","Pennsylvania","Philadelphia","500 block of East Ashmead Street",0,4,"N/A","Philadelphia ,   Pennsylvania",-75.1652215,39.9525839
"120","August 10, 2016","Illinois","Evanston","Foster Street and Jackson Avenue",0,4,"N/A","Evanston ,   Illinois",-87.6876969,42.0450722
"121","August 10, 2016","California","Sacramento","4000 Green Tree Drive",1,3,"N/A","Sacramento ,   California",-121.4943996,38.5815719
"122","August 8, 2016","New Mexico","Albuquerque","341 General Marshall Street NE",2,2,"N/A","Albuquerque ,   New Mexico",-106.6055534,35.0853336
"123","August 8, 2016","Florida","Jacksonville","1214 Labelle St",0,7,"N/A","Jacksonville ,   Florida",-81.655651,30.3321838
"124","August 7, 2016","California","Los Angeles","5925 South Figueroa Street",1,3,"N/A","Los Angeles ,   California",-118.2436849,34.0522342
"125","August 7, 2016","Colorado","Arvada","5400 block of Sheridan Boulevard",2,2,"N/A","Arvada ,   Colorado",-105.0874842,39.8027644
"126","August 7, 2016","Mississippi","Vicksburg","4460 Clay St",1,3,"N/A","Vicksburg ,   Mississippi",-90.877882,32.3526456
"127","August 7, 2016","Illinois","Chicago","100 block of South Springfield",0,4,"N/A","Chicago ,   Illinois",-87.6297982,41.8781136
"128","August 6, 2016","Pennsylvania","Reading (Sinking Spring)","51 Winding Brook Drive",5,0,"N/A","Reading (Sinking Spring) ,   Pennsylvania",-76.0220591,40.3250009
"129","August 5, 2016","Michigan","Pontiac","70 block of Thorpe Street",1,3,"N/A","Pontiac ,   Michigan",-83.2910468,42.6389216
"130","August 5, 2016","California","Mead Valley","21600 block of Rider Street",2,2,"N/A","Mead Valley ,   California",-117.2876058,33.8372196
"131","August 4, 2016","Tennessee","Memphis","Ayers Street and Griffith Avenue",0,4,"N/A","Memphis ,   Tennessee",-90.0489801,35.1495343
"132","August 3, 2016","Georgia","Decatur","4110 Glenwood Road",1,3,"N/A","Decatur ,   Georgia",-84.2963123,33.7748275
"133","August 2, 2016","Florida","Hollywood (West Park)","5700 block of West Hallandale Beach Boulevard",0,4,"N/A","Hollywood (West Park) ,   Florida",-80.1295175,26.0312267
"134","August 1, 2016","Indiana","Evansville","South Bedford Avenue",0,4,"N/A","Evansville ,   Indiana",-87.5710898,37.9715592
"135","July 31, 2016","Florida","Miami","Southwest 203rd Terrace and 115th Avenue",3,1,"N/A","Miami ,   Florida",-80.1917902,25.7616798
"136","July 31, 2016","Texas","Austin","208 East Sixth Street",1,4,"N/A","Austin ,   Texas",-97.7430608,30.267153
"137","July 30, 2016","Missouri","Saint Louis","5000 block of Kensington Avenue",0,5,"N/A","Saint Louis ,   Missouri",-90.1994042,38.6270025
"138","July 30, 2016","Georgia","Townsend (Eulonia)","14699 Highway 17",0,5,"N/A","Townsend (Eulonia) ,   Georgia",-81.3756224,31.5833847
"139","July 30, 2016","Washington","Mukilteo","10009 Chennault Beach",3,1,"N/A","Mukilteo ,   Washington",-122.3045815,47.9445396
"140","July 29, 2016","Georgia","Athens","Trail Creek Street",0,7,"N/A","Athens ,   Georgia",-83.357567,33.9519347
"141","July 28, 2016","New York","Elmira","303 College Avenue",0,5,"N/A","Elmira ,   New York",-76.8077338,42.0897965
"142","July 28, 2016","Maryland","Baltimore","Greenmount Avenue",0,4,"N/A","Baltimore ,   Maryland",-76.6121893,39.2903848
"143","July 28, 2016","Illinois","Chicago","800 block of West 50th Place",2,2,"N/A","Chicago ,   Illinois",-87.6297982,41.8781136
"144","July 25, 2016","Florida","Fort Myers","3580 Evans Ave",2,19,"N/A","Fort Myers ,   Florida",-81.8723084,26.640628
"145","July 24, 2016","Ohio","Hamilton","1555 Main St",1,7,"N/A","Hamilton ,   Ohio",-84.5613355,39.3995008
"146","July 23, 2016","South Carolina","North Charleston","3630 Ashley Phosphate Road",0,4,"N/A","North Charleston ,   South Carolina",-79.9748103,32.8546197
"147","July 23, 2016","Ohio","Cincinnati","3400 block of Beekman Street",2,2,"N/A","Cincinnati ,   Ohio",-84.5120196,39.1031182
"148","July 23, 2016","New York","Brooklyn","Fountain Avenue",0,4,"N/A","Brooklyn ,   New York",-73.9441579,40.6781784
"149","July 23, 2016","Texas","Bastrop","202 Childers Drive",4,1,"N/A","Bastrop ,   Texas",-97.3152701,30.1104947
"150","July 22, 2016","Illinois","Kankakee","300 block of North Wildwood Avenue",0,5,"N/A","Kankakee ,   Illinois",-87.8611531,41.1200325
"151","July 21, 2016","Illinois","Chicago","4400 block of South Leamington",0,5,"N/A","Chicago ,   Illinois",-87.6297982,41.8781136
"152","July 20, 2016","California","Fresno","Hedges at Peach and Olive",0,4,"N/A","Fresno ,   California",-119.7725868,36.7468422
"153","July 19, 2016","Arkansas","West Memphis","13th Street and Tyler Avenue",0,4,"N/A","West Memphis ,   Arkansas",-90.1845388,35.1464797
"154","July 17, 2016","Texas","Houston","6610 Tidwell",1,3,"N/A","Houston ,   Texas",-95.3698028,29.7604267
"155","July 17, 2016","Louisiana","Baton Rouge","9611 Airline Highway",4,3,"N/A","Baton Rouge ,   Louisiana",-91.1403196,30.4582829
"156","July 17, 2016","Michigan","Detroit","Grand River and McGraw avenue",0,4,"N/A","Detroit ,   Michigan",-83.0457538,42.331427
"157","July 16, 2016","Texas","Dallas","6300 block of Benavides Drive",0,5,"N/A","Dallas ,   Texas",-96.7969879,32.7766642
"158","July 16, 2016","Ohio","Cleveland","5000 block of Euclid Avenue",0,5,"N/A","Cleveland ,   Ohio",-81.6943605,41.49932
"159","July 16, 2016","California","San Bernardino","1200 block of West 25th Street",0,4,"N/A","San Bernardino ,   California",-117.2897652,34.1083449
"160","July 16, 2016","California","Bakersfield","621 Stephens Drive",1,14,"N/A","Bakersfield ,   California",-119.0187125,35.3732921
"161","July 16, 2016","Tennessee","Clarksville","1348 College Street",0,6,"N/A","Clarksville ,   Tennessee",-87.3594528,36.5297706
"162","July 15, 2016","Washington","Woodland","4006 NW 417th Street",3,1,"N/A","Woodland ,   Washington",-122.7439912,45.9045591
"163","July 14, 2016","Texas","Crosby","400 block of Pecan Avenue",3,1,"N/A","Crosby ,   Texas",-95.0621512,29.9118885
"164","July 14, 2016","California","Oakland","1600 block of 7th Street",0,4,"N/A","Oakland ,   California",-122.2711137,37.8043637
"165","July 14, 2016","Ohio","Akron","900 block of Moeller Avenue",1,3,"N/A","Akron ,   Ohio",-81.5190053,41.0814447
"166","July 13, 2016","Georgia","Warner Robins","105 Magnolia Avenue",0,5,"N/A","Warner Robins ,   Georgia",-83.624201,32.6130007
"167","July 13, 2016","Missouri","Saint Louis","3000 block of Miami St",2,2,"N/A","Saint Louis ,   Missouri",-90.1994042,38.6270025
"168","July 11, 2016","Maryland","Baltimore","1800 block of W. North Avenue",0,5,"N/A","Baltimore ,   Maryland",-76.6121893,39.2903848
"169","July 11, 2016","Michigan","Jackson","500 block of Summit Avenue",0,4,"N/A","Jackson ,   Michigan",-84.4013462,42.245869
"170","July 11, 2016","Michigan","Saint Joseph","811 Port Street",3,2,"N/A","Saint Joseph ,   Michigan",-86.4895463,42.0938577
"171","July 11, 2016","District of Columbia","Washington","5100 block of Call Pl., SE",0,4,"N/A","Washington ,   District of Columbia",-77.0368707,38.9071923
"172","July 7, 2016","Tennessee","Bristol","536 Volunteer Parkway",1,4,"N/A","Bristol ,   Tennessee",-82.1887444,36.5951059
"173","July 7, 2016","Louisiana","Baton Rouge","2136 North Lobdell Avenue",0,4,"N/A","Baton Rouge ,   Louisiana",-91.1403196,30.4582829
"174","July 7, 2016","Texas","Dallas","800 Main Street",5,9,"N/A","Dallas ,   Texas",-96.7969879,32.7766642
"175","July 5, 2016","California","Los Angeles","56th Street and Naomi Avenue",0,4,"N/A","Los Angeles ,   California",-118.2436849,34.0522342
"176","July 4, 2016","Pennsylvania","Pittsburgh","Seventh and Liberty avenues",0,4,"N/A","Pittsburgh ,   Pennsylvania",-79.9958864,40.4406248
"177","July 4, 2016","Illinois","Chicago (Englewood)","5500 block of South Hermitage Avenue",0,4,"N/A","Chicago (Englewood) ,   Illinois",-87.6416419,41.775305
"178","July 4, 2016","New York","Brooklyn","419 Chauncey Street",0,7,"N/A","Brooklyn ,   New York",-73.9441579,40.6781784
"179","July 4, 2016","Ohio","Cleveland","1400 block of W. 107 Street",0,4,"N/A","Cleveland ,   Ohio",-81.6943605,41.49932
"180","July 4, 2016","Texas","Houston","1300 block of Robin",3,2,"N/A","Houston ,   Texas",-95.3698028,29.7604267
"181","July 4, 2016","Arizona","Phoenix","4000 block of West Southern Avenue",2,6,"N/A","Phoenix ,   Arizona",-112.0740373,33.4483771
"182","July 3, 2016","Louisiana","Monroe","401 Lea Joyner Memorial Expy",2,3,"N/A","Monroe ,   Louisiana",-92.1193012,32.5093109
"183","July 3, 2016","Tennessee","Chattanooga","2300 block of Daisy Street",0,4,"N/A","Chattanooga ,   Tennessee",-85.3096801,35.0456297
"184","June 30, 2016","Illinois","Chicago","9500 block of South Loomis Street",1,4,"N/A","Chicago ,   Illinois",-87.6297982,41.8781136
"185","June 29, 2016","Nevada","Las Vegas","6100 block of West Lake Mead Boulevard",5,0,"N/A","Las Vegas ,   Nevada",-115.1398296,36.1699412
"186","June 28, 2016","California","Los Angeles (county)","13800 block of South Avalon Boulevard",1,3,"N/A","Los Angeles (county) ,   California",-118.2436596,34.0522265
"187","June 28, 2016","Illinois","Chicago","1600 block of South Christiana",0,4,"N/A","Chicago ,   Illinois",-87.6297982,41.8781136
"188","June 27, 2016","Oregon","Woodburn","13436 Killiam Loop NE",3,1,"N/A","Woodburn ,   Oregon",-122.8553724,45.143731
"189","June 26, 2016","Georgia","Atlanta","1500 block of Moreland Avenue SE",1,4,"N/A","Atlanta ,   Georgia",-84.3879824,33.7489954
"190","June 26, 2016","Texas","Houston","6000 block of Elm Street",1,3,"N/A","Houston ,   Texas",-95.3698028,29.7604267
"191","June 26, 2016","Texas","Corpus Christi","Baldwin Blvd  and Lamar",0,4,"N/A","Corpus Christi ,   Texas",-97.396381,27.8005828
"192","June 26, 2016","South Carolina","Marlboro (county)","Highway 38",0,4,"N/A","Marlboro (county) ,   South Carolina",-79.6951103,34.5582435
"193","June 26, 2016","North Carolina","Charlotte","2240 Camp Greene St.",0,5,"N/A","Charlotte ,   North Carolina",-80.8431267,35.2270869
"194","June 25, 2016","Texas","Fort Worth","2466 East Lancaster Avenue",2,5,"N/A","Fort Worth ,   Texas",-97.3307658,32.7554883
"195","June 25, 2016","Virginia","Norfolk","700 block of Craig Street",0,4,"N/A","Norfolk ,   Virginia",-76.2858726,36.8507689
"196","June 25, 2016","Illinois","Chicago","1400 block of W. 114th Place",0,4,"N/A","Chicago ,   Illinois",-87.6297982,41.8781136
"197","June 24, 2016","Kansas","Kansas City","N. 3rd and Walker",0,4,"N/A","Kansas City ,   Kansas",-94.6274636,39.114053
"198","June 24, 2016","Connecticut","Hartford","Brook and Winter Street",0,5,"N/A","Hartford ,   Connecticut",-72.6850932,41.7637111
"199","June 24, 2016","Maryland","District Heights","3100 block of Orleans Ave",3,2,"N/A","District Heights ,   Maryland",-76.8894171,38.8576128
"200","June 22, 2016","Washington","Olympia","500 block of Dutterow Road SE",3,1,"N/A","Olympia ,   Washington",-122.9006951,47.0378741
"201","June 22, 2016","Georgia","Dekalb (county)","Lancashire Drive and Central Drive",1,4,"N/A","Dekalb (county) ,   Georgia",-84.2278796,33.7956441
"202","June 22, 2016","Illinois","Chicago","3100 block of West Warren",0,4,"N/A","Chicago ,   Illinois",-87.6297982,41.8781136
"203","June 21, 2016","New Jersey","Willingboro","Mosshill Lane",0,4,"N/A","Willingboro ,   New Jersey",-74.8916458,40.028848
"204","June 21, 2016","Kentucky","Louisville","2802 Rodman Street",2,2,"N/A","Louisville ,   Kentucky",-85.7584557,38.2526647
"205","June 19, 2016","Virginia","Roanoke","2328 Melrose Avenue",0,4,"N/A","Roanoke ,   Virginia",-79.9414266,37.2709704
"206","June 18, 2016","Virginia","Exmore","Fredrick Douglas Road",1,3,"N/A","Exmore ,   Virginia",-75.8229859,37.5318008
"207","June 18, 2016","Georgia","Waycross","2625 Arnold Ct",2,2,"N/A","Waycross ,   Georgia",-82.3540178,31.2135511
"208","June 18, 2016","Illinois","Chicago","East 79th Street and South Escanaba Avenue",0,4,"N/A","Chicago ,   Illinois",-87.6297982,41.8781136
"209","June 14, 2016","Delaware","Wilmington","South Van Buren and Elm streets",0,4,"N/A","Wilmington ,   Delaware",-75.5397878,39.7390721
"210","June 14, 2016","California","Oakland","1301 Franklin Street",1,3,"N/A","Oakland ,   California",-122.2711137,37.8043637
"211","June 13, 2016","California","Fresno","East El Monte Way and Recreation Avenue",0,4,"N/A","Fresno ,   California",-119.7725868,36.7468422
"212","June 13, 2016","New York","Brooklyn","Avenue D and E. 57th",0,5,"N/A","Brooklyn ,   New York",-73.9441579,40.6781784
"213","June 13, 2016","Illinois","Chicago","3200 block of West Congress",0,5,"N/A","Chicago ,   Illinois",-87.6297982,41.8781136
"214","June 12, 2016","Florida","Orlando","1912 S Orange Avenue",50,53,"N/A","Orlando ,   Florida",-81.3792365,28.5383355
"215","June 11, 2016","Minnesota","Webster","4000 block of Elmore Avenue",0,4,"N/A","Webster ,   Minnesota",-93.352723,44.529686
"216","June 11, 2016","California","Stockton","Alvarado Avenue",1,3,"N/A","Stockton ,   California",-121.2907796,37.9577016
"217","June 11, 2016","California","Panorama City","8500 block of Cedros Avenue",3,2,"N/A","Panorama City ,   California",-118.442425,34.227617
"218","June 11, 2016","New Mexico","Roswell","2300 block of Davis Ave",5,0,"N/A","Roswell ,   New Mexico",-104.5230242,33.3942655
"219","June 11, 2016","North Carolina","Charlotte","4000 block of Collegiate Avenue",1,3,"N/A","Charlotte ,   North Carolina",-80.8431267,35.2270869
"220","June 9, 2016","Florida","Fort Walton Beach","Landview Drive",0,4,"N/A","Fort Walton Beach ,   Florida",-86.6170308,30.4200708
"221","June 8, 2016","Massachusetts","Boston","66 Washington St",1,3,"N/A","Boston ,   Massachusetts",-71.0588801,42.3600825
"222","June 8, 2016","District of Columbia","Washington","North Capitol Street and New York Avenue NW",0,4,"N/A","Washington ,   District of Columbia",-77.0368707,38.9071923
"223","June 6, 2016","California","Visalia","33 60 South Fairway Street",0,4,"N/A","Visalia ,   California",-119.2920585,36.3302284
"224","June 5, 2016","Minnesota","Minneapolis","8th and Humboldt Avenue N.",0,4,"N/A","Minneapolis ,   Minnesota",-93.2650108,44.977753
"225","June 5, 2016","Florida","Cape Coral","2600 block of Skyline Boulevard S",3,3,"N/A","Cape Coral ,   Florida",-81.9495331,26.5628537
"226","June 5, 2016","New York","Brooklyn","Mermaid Ave and 16th St.",0,4,"N/A","Brooklyn ,   New York",-73.9441579,40.6781784
"227","June 5, 2016","Arizona","Phoenix","8152 N Black Canyon Hwy",2,5,"N/A","Phoenix ,   Arizona",-112.0740373,33.4483771
"228","June 4, 2016","Colorado","Denver","3600 block of Hudson Street",3,1,"N/A","Denver ,   Colorado",-104.990251,39.7392358
"229","May 31, 2016","Illinois","Chicago","3300 block of West Huron Street",0,4,"N/A","Chicago ,   Illinois",-87.6297982,41.8781136
"230","May 31, 2016","Indiana","Fort Wayne","6600 block of Pawawna Drive",0,4,"N/A","Fort Wayne ,   Indiana",-85.1393513,41.079273
"231","May 30, 2016","Maryland","Baltimore","500 block of East 43rd Street",0,5,"N/A","Baltimore ,   Maryland",-76.6121893,39.2903848
"232","May 30, 2016","California","Sacramento","3900 block of 44th",0,5,"N/A","Sacramento ,   California",-121.4943996,38.5815719
"233","May 29, 2016","Nevada","Las Vegas","200 block of North 3rd Street",0,4,"N/A","Las Vegas ,   Nevada",-115.1398296,36.1699412
"234","May 29, 2016","Texas","Houston","13210 Memorial Drive",2,6,"N/A","Houston ,   Texas",-95.3698028,29.7604267
"235","May 29, 2016","New Jersey","Trenton","600 block of Martin Luther King Jr. Boulevard",0,6,"N/A","Trenton ,   New Jersey",-74.7429384,40.2170534
"236","May 29, 2016","Indiana","Indianapolis","300 block of South Meridian Street",0,4,"N/A","Indianapolis ,   Indiana",-86.158068,39.768403
"237","May 23, 2016","New Jersey","Newark","102 Isabella Avenue",0,5,"N/A","Newark ,   New Jersey",-74.1723667,40.735657
"238","May 22, 2016","Louisiana","New Orleans","8639 Apple St",0,4,"N/A","New Orleans ,   Louisiana",-90.0715323,29.9510658
"239","May 22, 2016","California","Stockton","Poplar and Sutter Streets",1,3,"N/A","Stockton ,   California",-121.2907796,37.9577016
"240","May 22, 2016","Tennessee","Nashville","100 block of Rains Avenue",0,4,"N/A","Nashville ,   Tennessee",-86.7816016,36.1626638
"241","May 21, 2016","Georgia","Jackson","Levi Barnes Road",1,3,"N/A","Jackson ,   Georgia",-83.9660209,33.2945651
"242","May 18, 2016","Indiana","Indianapolis","34th Street and North Keystone Avenue",0,4,"N/A","Indianapolis ,   Indiana",-86.158068,39.768403
"243","May 17, 2016","South Carolina","Ravenel","5360 Savannah Highway",3,1,"N/A","Ravenel ,   South Carolina",-80.2500986,32.7632321
"244","May 15, 2016","Georgia","Moultrie","Rossman Dairy Road",5,0,"N/A","Moultrie ,   Georgia",-83.7888387,31.1799407
"245","May 15, 2016","Indiana","Evansville","420 North Garvin Street",0,4,"N/A","Evansville ,   Indiana",-87.5710898,37.9715592
"246","May 14, 2016","Georgia","Atlanta","Cordova and Peoples Street",0,5,"N/A","Atlanta ,   Georgia",-84.3879824,33.7489954
"247","May 14, 2016","West Virginia","Charleston","2300 block of Washington Street West",1,3,"N/A","Charleston ,   West Virginia",-81.6326234,38.3498195
"248","May 11, 2016","Alabama","Birmingham","1400 block of 21st Street N",1,4,"N/A","Birmingham ,   Alabama",-86.80249,33.5206608
"249","May 11, 2016","Illinois","Chicago","7100 block of South State Street",0,5,"N/A","Chicago ,   Illinois",-87.6297982,41.8781136
"250","May 8, 2016","Texas","Austin","8600 block of North Lamar",1,3,"N/A","Austin ,   Texas",-97.7430608,30.267153
"251","May 6, 2016","Michigan","Detroit","12300 block of Gratiot",1,4,"N/A","Detroit ,   Michigan",-83.0457538,42.331427
"252","May 6, 2016","Alabama","Montgomery","1300 block of Clay Street",1,3,"N/A","Montgomery ,   Alabama",-86.2999689,32.3668052
"253","May 6, 2016","Maryland","Bethesda","7101 Democracy Blvd",3,3,"N/A","Bethesda ,   Maryland",-77.0947092,38.984652
"254","May 5, 2016","Louisiana","Shreveport","300 block of North Thomas Drive",2,6,"N/A","Shreveport ,   Louisiana",-93.7501789,32.5251516
"255","May 5, 2016","Florida","Miami","2108 NW 19th Terrace",1,3,"N/A","Miami ,   Florida",-80.1917902,25.7616798
"256","May 4, 2016","Minnesota","Minneapolis","16th Avenue North and Newton Avenue North",1,7,"N/A","Minneapolis ,   Minnesota",-93.2650108,44.977753
"257","May 1, 2016","Tennessee","Murfreesboro","1955 Old Castle Drive",0,5,"N/A","Murfreesboro ,   Tennessee",-86.39027,35.8456213
"258","April 29, 2016","Missouri","Saint Louis (Ferguson)","400 block of Dade Ave",0,4,"N/A","Saint Louis (Ferguson) ,   Missouri",-90.3053915,38.7442175
"259","April 29, 2016","California","Oakland","3200 block of San Pablo Avenue",0,5,"N/A","Oakland ,   California",-122.2711137,37.8043637
"260","April 27, 2016","Louisiana","Baton Rouge","4000 Kerrit Drive",2,2,"N/A","Baton Rouge ,   Louisiana",-91.1403196,30.4582829
"261","April 27, 2016","Mississippi","Kilmichael","Pecan Drive",3,1,"N/A","Kilmichael ,   Mississippi",-89.5717431,33.4434573
"262","April 26, 2016","Maryland","District Heights (Forestville)","6500 block of Hil-Mar Drive",1,4,"N/A","District Heights (Forestville) ,   Maryland",-76.8922734,38.8599797
"263","April 25, 2016","Tennessee","Nashville","400 Charlotte Avenue",0,4,"N/A","Nashville ,   Tennessee",-86.7816016,36.1626638
"264","April 25, 2016","Florida","Miami","1506 Northwest 70th Street",0,5,"N/A","Miami ,   Florida",-80.1917902,25.7616798
"265","April 24, 2016","Virginia","Halifax","1055 L P Bailey Memorial Hwy",0,5,"N/A","Halifax ,   Virginia",-78.9283441,36.7659709
"266","April 24, 2016","Illinois","Chicago (Englewood)","2000 block of West 68th Place",2,3,"N/A","Chicago (Englewood) ,   Illinois",-87.6416419,41.775305
"267","April 24, 2016","Colorado","Denver","1400 block of 14th Street",0,4,"N/A","Denver ,   Colorado",-104.990251,39.7392358
"268","April 23, 2016","Nevada","Las Vegas","1650 South Hollywood Boulevard",1,3,"N/A","Las Vegas ,   Nevada",-115.1398296,36.1699412
"269","April 23, 2016","Alabama","Auburn","1200 block of Lee Road 83",3,1,"N/A","Auburn ,   Alabama",-85.4807825,32.6098566
"270","April 23, 2016","Kansas","Topeka","3732 S.W. Topeka Boulevard",1,4,"N/A","Topeka ,   Kansas",-95.6890185,39.0558235
"271","April 23, 2016","New York","New York (Manhattan)","West 141st Street and Edgecombe Avenue",0,4,"N/A","New York (Manhattan) ,   New York",-73.9712488,40.7830603
"272","April 22, 2016","Ohio","Piketon","4077 Union Hill Road",8,0,"N/A","Piketon ,   Ohio",-83.0143443,39.0681252
"273","April 22, 2016","Georgia","Appling","3162 Johnson Drive",6,0,"N/A","Appling ,   Georgia",-82.3163154,33.54609
"274","April 21, 2016","Maryland","Baltimore","4800 block of Frankford Avenue",0,4,"N/A","Baltimore ,   Maryland",-76.6121893,39.2903848
"275","April 19, 2016","Alabama","Blountsville","81551 Us Highway 278",1,4,"N/A","Blountsville ,   Alabama",-86.5911026,34.0814863
"276","April 19, 2016","Illinois","Chicago","2700 block of West 53rd Street",1,3,"N/A","Chicago ,   Illinois",-87.6297982,41.8781136
"277","April 19, 2016","Illinois","Chicago","1400 block of West 84th Street",1,4,"N/A","Chicago ,   Illinois",-87.6297982,41.8781136
"278","April 18, 2016","California","Long Beach","1200 block of E. 17th Street",1,3,"N/A","Long Beach ,   California",-118.1937395,33.7700504
"279","April 17, 2016","Pennsylvania","Philadelphia","600 block of Westmoreland Street",3,1,"N/A","Philadelphia ,   Pennsylvania",-75.1652215,39.9525839
"280","April 17, 2016","South Carolina","Pelzer","200 block of Eastview Road",1,3,"N/A","Pelzer ,   South Carolina",-82.4559598,34.6423372
"281","April 17, 2016","Texas","Edinburg","5021 W St Hwy 107",1,6,"N/A","Edinburg ,   Texas",-98.1633432,26.3017374
"282","April 16, 2016","Michigan","Detroit","9500 block of Oakland",1,4,"N/A","Detroit ,   Michigan",-83.0457538,42.331427
"283","April 16, 2016","Florida","Orlando","1100 block of Conley Street",2,4,"N/A","Orlando ,   Florida",-81.3792365,28.5383355
"284","April 16, 2016","Alabama","Enterprise","Baxter Street",0,4,"N/A","Enterprise ,   Alabama",-85.8552161,31.3151708
"285","April 14, 2016","New Jersey","Orange","Taylor Street",1,3,"N/A","Orange ,   New Jersey",-74.2326478,40.7706187
"286","April 10, 2016","Wisconsin","Milwaukee","76th and Sheridan",1,3,"N/A","Milwaukee ,   Wisconsin",-87.9064736,43.0389025
"287","April 10, 2016","California","Los Angeles","84th Street and Towne Avenue",0,4,"N/A","Los Angeles ,   California",-118.2436849,34.0522342
"288","April 9, 2016","Tennessee","Memphis","Mt Moriah Road and Ridgeway Road",0,4,"N/A","Memphis ,   Tennessee",-90.0489801,35.1495343
"289","April 9, 2016","Alabama","Anniston","West 15th Street and Crawford Avenue",0,4,"N/A","Anniston ,   Alabama",-85.8316318,33.6598257
"290","April 9, 2016","New Mexico","Albuquerque","2600 block of Mesa Drive SE",0,4,"N/A","Albuquerque ,   New Mexico",-106.6055534,35.0853336
"291","April 7, 2016","Illinois","Chicago","2200 block of East 70th Place",0,4,"N/A","Chicago ,   Illinois",-87.6297982,41.8781136
"292","March 31, 2016","Illinois","Chicago (Englewood)","6800 block of South Throop",0,4,"N/A","Chicago (Englewood) ,   Illinois",-87.6416419,41.775305
"293","March 25, 2016","Illinois","Chicago","4500 block of West West End Avenue",0,4,"N/A","Chicago ,   Illinois",-87.6297982,41.8781136
"294","March 25, 2016","Colorado","Denver","8501 E. Alameda Avenue",0,4,"N/A","Denver ,   Colorado",-104.990251,39.7392358
"295","March 21, 2016","Illinois","Chicago","5700 block of West Washington Boulevard",0,4,"N/A","Chicago ,   Illinois",-87.6297982,41.8781136
"296","March 19, 2016","Florida","Plantation","12050 NW 4th Court",1,4,"N/A","Plantation ,   Florida",-80.2331036,26.1275862
"297","March 19, 2016","Alabama","Wetumpka","South Shelby Street",2,2,"N/A","Wetumpka ,   Alabama",-86.2119127,32.5437448
"298","March 15, 2016","Georgia","Atlanta","Donald Lee Hollowell Drive",0,5,"N/A","Atlanta ,   Georgia",-84.3879824,33.7489954
"299","March 13, 2016","Florida","Fort Myers","50 South Road",0,4,"N/A","Fort Myers ,   Florida",-81.8723084,26.640628
"300","March 12, 2016","Oregon","Portland","16126 S.E. Stark St.",0,4,"N/A","Portland ,   Oregon",-122.6764815,45.5230622
"301","March 12, 2016","California","Oakland","Interstate 880",0,4,"N/A","Oakland ,   California",-122.2711137,37.8043637
"302","March 11, 2016","Michigan","Detroit","2600 block of Hazelwood",2,2,"N/A","Detroit ,   Michigan",-83.0457538,42.331427
"303","March 11, 2016","New Jersey","Trenton","Oliver Avenue",0,5,"N/A","Trenton ,   New Jersey",-74.7429384,40.2170534
"304","March 9, 2016","Pennsylvania","Pittsburgh (Wilkinsburg)","1304 Franklin Avenue",5,3,"N/A","Pittsburgh (Wilkinsburg) ,   Pennsylvania",-79.8858507,40.4433488
"305","March 8, 2016","Texas","San Antonio","Sherman Street",2,3,"N/A","San Antonio ,   Texas",-98.4936282,29.4241219
"306","March 7, 2016","Louisiana","Lafayette","800 block of Martin Luther King Jr. Drive",0,4,"N/A","Lafayette ,   Louisiana",-92.0198427,30.2240897
"307","March 7, 2016","Kansas","Kansas City","3000 block of South 36th Street",5,0,"N/A","Kansas City ,   Kansas",-94.6274636,39.114053
"308","March 6, 2016","Massachusetts","Chelsea","120 Washington Avenue",1,6,"N/A","Chelsea ,   Massachusetts",-71.0328284,42.3917638
"309","March 6, 2016","Georgia","Roswell","890 Atlanta St",0,4,"N/A","Roswell ,   Georgia",-84.3615555,34.0232431
"310","March 6, 2016","California","Compton","900 block of West Victoria Street",1,8,"N/A","Compton ,   California",-118.2200712,33.8958492
"311","March 5, 2016","Kansas","Wichita","116 North Mead",0,4,"N/A","Wichita ,   Kansas",-97.330053,37.6871761
"312","March 4, 2016","Ohio","Columbus","900 E. 5th Ave.",1,3,"N/A","Columbus ,   Ohio",-82.9987942,39.9611755
"313","February 28, 2016","Michigan","Detroit","8800 block of Livernois",0,5,"N/A","Detroit ,   Michigan",-83.0457538,42.331427
"314","February 28, 2016","California","Riverside (Jurupa Valley)","5500 block of Etiwanda Avenue",1,3,"N/A","Riverside (Jurupa Valley) ,   California",-117.4854802,33.9971974
"315","February 27, 2016","Virginia","Woodbridge (Lake Ridge)","13051 Lashmere Court",2,2,"N/A","Woodbridge (Lake Ridge) ,   Virginia",-77.27857,38.676277
"316","February 26, 2016","Washington","Belfair","300 block of Horseshoe Rd.",5,0,"N/A","Belfair ,   Washington",-122.826946,47.4514588
"317","February 25, 2016","Kansas","Hesston","200 S Ridge Rd",4,14,"N/A","Hesston ,   Kansas",-97.4314267,38.1383437
"318","February 23, 2016","Arizona","Glendale","4812 West Sunnyside Ave",5,0,"N/A","Glendale ,   Arizona",-112.1859866,33.5386523
"319","February 23, 2016","Florida","Daytona Beach","1042 Sheridan Road",0,4,"N/A","Daytona Beach ,   Florida",-81.0228331,29.2108147
"320","February 21, 2016","Missouri","Hazelwood","Interstate Highway 270 and North Lindbergh Boulevard",1,3,"N/A","Hazelwood ,   Missouri",-90.3709489,38.7714396
"321","February 21, 2016","Texas","Houston","5100 block of Idaho Street",0,5,"N/A","Houston ,   Texas",-95.3698028,29.7604267
"322","February 20, 2016","Florida","Tampa","2810 E. Bearss Ave",1,3,"N/A","Tampa ,   Florida",-82.4571776,27.950575
"323","February 20, 2016","Alabama","Bessemer","200 block of Elm Street",1,3,"N/A","Bessemer ,   Alabama",-86.954437,33.4017766
"324","February 20, 2016","Florida","Orlando","446 S Parramore Ave",0,4,"N/A","Orlando ,   Florida",-81.3792365,28.5383355
"325","February 20, 2016","Mississippi","Iuka","County Road 201",2,3,"N/A","Iuka ,   Mississippi",-88.1900415,34.8117565
"326","February 20, 2016","Michigan","Kalamazoo","5581 Cracker Barrel Blvd",6,2,"N/A","Kalamazoo ,   Michigan",-85.5872286,42.2917069
"327","February 19, 2016","Missouri","Edgerton","4100 block of Buena Vista Road",4,0,"N/A","Edgerton ,   Missouri",-94.6332896,39.5049976
"328","February 19, 2016","California","Vallejo","509 Porter Street",1,3,"N/A","Vallejo ,   California",-122.2566367,38.1040864
"329","February 14, 2016","Texas","Houston","8449 Gulf Freeway",1,3,"N/A","Houston ,   Texas",-95.3698028,29.7604267
"330","February 14, 2016","Alabama","Eutaw (Union)","Earnest Friday Road",0,5,"N/A","Eutaw (Union) ,   Alabama",-87.8853838,32.840508
"331","February 13, 2016","Louisiana","Marrero","5425 Lapalco Boulevard",0,4,"N/A","Marrero ,   Louisiana",-90.1003506,29.8993723
"332","February 7, 2016","Mississippi","Pass Christian","Davis Avenue",2,4,"N/A","Pass Christian ,   Mississippi",-89.2475429,30.3157527
"333","February 7, 2016","Florida","Orlando","7432 Universal Blvd",2,10,"N/A","Orlando ,   Florida",-81.3792365,28.5383355
"334","February 7, 2016","New York","Rochester","547 State street",1,7,"N/A","Rochester ,   New York",-77.6109219,43.16103
"335","February 7, 2016","Illinois","Chicago (Englewood)","6500 block of South Green Street",0,4,"N/A","Chicago (Englewood) ,   Illinois",-87.6416419,41.775305
"336","February 6, 2016","California","Los Angeles","12800 block of Cook Street",1,3,"N/A","Los Angeles ,   California",-118.2436849,34.0522342
"337","February 6, 2016","Florida","Apopka","10th Street",0,4,"N/A","Apopka ,   Florida",-81.5322149,28.6934076
"338","February 6, 2016","Florida","Tampa","8123 N Nebraska Ave",2,6,"N/A","Tampa ,   Florida",-82.4571776,27.950575
"339","February 3, 2016","District of Columbia","Washington","1500 block of Butler St. SE",0,4,"N/A","Washington ,   District of Columbia",-77.0368707,38.9071923
"340","January 30, 2016","Colorado","Denver","4655 Humboldt St",1,3,"N/A","Denver ,   Colorado",-104.990251,39.7392358
"341","January 30, 2016","Arizona","Glendale","67th and Missouri Avenue",3,5,"N/A","Glendale ,   Arizona",-112.1859866,33.5386523
"342","January 27, 2016","Virginia","Chesapeake","1401 N. George Washington Hwy",6,0,"N/A","Chesapeake ,   Virginia",-76.2874927,36.7682088
"343","January 26, 2016","Washington","Seattle","Airport Way S. and S. Atlantic St.",2,3,"N/A","Seattle ,   Washington",-122.3320708,47.6062095
"344","January 25, 2016","California","Perris","140 S. D Street",1,4,"N/A","Perris ,   California",-117.2286478,33.7825194
"345","January 23, 2016","California","Los Angeles","8105 Avalon Blvd",2,2,"N/A","Los Angeles ,   California",-118.2436849,34.0522342
"346","January 17, 2016","Virginia","Ware Neck (Gloucester Courthouse)","Ditchley Road and Gill Lane",1,3,"N/A","Ware Neck (Gloucester Courthouse) ,   Virginia",-76.4586218,37.4024864
"347","January 11, 2016","Delaware","Wilmington","900 block of Brown Street",1,4,"N/A","Wilmington ,   Delaware",-75.5397878,39.7390721
"348","January 8, 2016","District of Columbia","Washington","1700 East Capitol Street Northeast",0,4,"N/A","Washington ,   District of Columbia",-77.0368707,38.9071923
"349","January 8, 2016","Illinois","Chicago","1500 block of South Kedzie",1,4,"N/A","Chicago ,   Illinois",-87.6297982,41.8781136
"350","January 7, 2016","Tennessee","Memphis","3800 block of Kerwood Avenue",1,3,"N/A","Memphis ,   Tennessee",-90.0489801,35.1495343
"351","January 6, 2016","Florida","Lakeland","2312 East Magnolia Street",3,1,"N/A","Lakeland ,   Florida",-81.9498042,28.0394654
